{"league": {"id": "ac79301f-9b1a-4e72-a4cb-230d4418ae08", "name": "NBA G League", "alias": "NBDL"}, "conferences": [{"id": "1359451c-3a31-4a27-afca-214e3d391156", "name": "WESTERN CONFERENCE", "alias": "WESTERN-DL", "divisions": [{"id": "12e5e30e-894f-4b77-887d-027b3f97437b", "name": "Pacific", "alias": "PACIFIC-DL", "teams": []}, {"id": "553510fc-6a2a-4c3d-ac6e-4deb55a52b87", "name": "Western Conference", "alias": "WESTERN - G", "teams": [{"id": "035ebd2d-69d9-4d73-a4b3-519f78071975", "name": "Blue", "market": "Oklahoma City", "alias": "OKL", "founded": 2001, "owner": "Professional Basketball Club LLC", "general_manager": "DJ White", "championships_won": 3, "championship_seasons": "2004, 2005, 2024", "conference_titles": 3, "division_titles": 4, "playoff_appearances": 10, "reference": "1612709889", "team_colors": [{"type": "secondary", "hex_color": "#ef3b24", "rgb_color": {"red": 239, "green": 59, "blue": 36}}, {"type": "primary", "hex_color": "#007ac1", "rgb_color": {"red": 0, "green": 122, "blue": 193}}], "venue": {"id": "a13af216-4409-5021-8dd5-255cc71bffc3", "name": "Paycom Center", "capacity": 18203, "address": "100 W. Reno Avenue", "city": "Oklahoma City", "state": "OK", "zip": "73102", "country": "USA", "location": {"lat": "35.463333", "lng": "-97.515"}}}, {"id": "0a3d428b-572a-4a94-b716-8c1297c53d8e", "name": "Lakers", "market": "South Bay", "alias": "SBL", "founded": 2006, "owner": "Los Angeles Lakers", "general_manager": "Nick Mazzella", "president": "Joey Buss", "sponsor": "bibigo", "championships_won": 0, "conference_titles": 2, "division_titles": 2, "playoff_appearances": 8, "reference": "1612709905", "team_colors": [{"type": "primary", "hex_color": "#552583", "rgb_color": {"red": 85, "green": 37, "blue": 131}}, {"type": "secondary", "hex_color": "#fdb927", "rgb_color": {"red": 253, "green": 185, "blue": 39}}], "venue": {"id": "8ae128c4-e3c5-478a-bbe0-8fab0344e147", "name": "UCLA Health Training Center", "capacity": 750, "address": "2275 E. Mariposa Avenue", "city": "El Segundo", "state": "CA", "zip": "90245", "country": "USA", "location": {"lat": "33.92471844301611", "lng": "-118.38396291639627"}}}, {"id": "0f009580-dda8-4080-aa43-5d58a17028f6", "name": "Spurs", "market": "Austin", "alias": "AUS", "founded": 2001, "owner": "Spurs Sports & Entertainment", "general_manager": "Josh Larson", "mascot": "Da Bull", "sponsor": "Ledger", "championships_won": 2, "championship_seasons": "2012, 2018", "conference_titles": 4, "division_titles": 5, "playoff_appearances": 12, "reference": "1612709890", "team_colors": [{"type": "secondary", "hex_color": "#c4ced4", "rgb_color": {"red": 196, "green": 206, "blue": 212}}, {"type": "primary", "hex_color": "#000000", "rgb_color": {"red": 0, "green": 0, "blue": 0}}], "venue": {"id": "1f5c027f-2c59-4ce1-b9d4-f7d6819006b3", "name": "H-E-B Center at Cedar Park", "capacity": 8000, "address": "2100 Avenue of the Stars", "city": "Cedar Park", "state": "TX", "zip": "78613", "country": "USA", "location": {"lat": "30.5414", "lng": "-97.8202"}}}, {"id": "132ef7de-e880-4863-bf57-27894ea0f5bb", "name": "Capitanes", "market": "Mexico City", "alias": "MXC", "founded": 2021, "owner": "Mois\u00e9s Cos\u00edo, Rodrigo Trujillo, Patricio Garza", "general_manager": "Orlando M\u00e9ndez-Valdez & Danny Soto", "president": "Nu\u00f1o P\u00e9rez-Pla del Alvear", "mascot": "Juanjolote", "sponsor": "AT&T", "championships_won": 0, "conference_titles": 0, "division_titles": 0, "playoff_appearances": 0, "reference": "1612709931", "team_colors": [{"type": "primary", "hex_color": "#1d428a", "rgb_color": {"red": 29, "green": 66, "blue": 138}}, {"type": "secondary", "hex_color": "#fee11a", "rgb_color": {"red": 254, "green": 225, "blue": 26}}], "venue": {"id": "cf9ab81f-d94f-472f-893d-a73a49ac2f3a", "name": "Mexico City Arena", "capacity": 22300, "address": "Av de las Granjas 800", "city": "Mexico City", "country": "MEX", "location": {"lat": "19.50078783658358", "lng": "-99.17511607070013"}}}, {"id": "1adf6996-af2e-41a2-b158-174b0e4c5a1d", "name": "Remix", "market": "Rip City", "alias": "RCR", "founded": 2023, "owner": "Portland Trail Blazers", "general_manager": "Danny Connors", "president": "Hannah Grauert", "mascot": "Douglas Fur", "championships_won": 0, "conference_titles": 0, "division_titles": 0, "playoff_appearances": 0, "reference": "1612709933", "team_colors": [{"type": "secondary", "hex_color": "#efdbb2", "rgb_color": {"red": 239, "green": 219, "blue": 178}}, {"type": "primary", "hex_color": "#e03a3e", "rgb_color": {"red": 224, "green": 58, "blue": 62}}], "venue": {"id": "a754c20f-392b-4ed1-82c0-ae3b51edd3d0", "name": "Chiles Center", "capacity": 4852, "address": "5000 North Willamette Boulevard", "city": "Portland", "state": "OR", "zip": "97203", "country": "USA", "location": {"lat": "45.5736143", "lng": "-122.7305516"}}}, {"id": "36ab932e-ab25-4b82-8133-ea5aed2f6a02", "name": "Wolves", "market": "Iowa", "alias": "IWA", "founded": 2007, "owner": "Minnesota Timberwolves", "general_manager": "Josh Gershon", "president": "Drew Van Meeteren", "mascot": "Alpha", "sponsor": "Landus", "championships_won": 1, "championship_seasons": "2011", "conference_titles": 1, "division_titles": 4, "playoff_appearances": 5, "reference": "1612709911", "team_colors": [{"type": "primary", "hex_color": "#0c2340", "rgb_color": {"red": 12, "green": 35, "blue": 64}}, {"type": "secondary", "hex_color": "#236192", "rgb_color": {"red": 35, "green": 97, "blue": 146}}], "venue": {"id": "786bfe1c-6fa3-4177-a207-0242f7f68bfb", "name": "Casey's Center", "capacity": 16110, "address": "233 Center Street", "city": "Des Moines", "state": "IA", "zip": "50309", "country": "USA", "location": {"lat": "41.592667", "lng": "-93.621139"}}}, {"id": "4e26f748-e98f-412e-9c27-f04b255e7f25", "name": "Hustle", "market": "Memphis", "alias": "MHU", "founded": 2017, "owner": "Memphis Grizzlies", "general_manager": "Tommy Eames", "president": "Zachary Kleiman", "mascot": "Mane the Lion", "sponsor": "FedEx", "championships_won": 0, "conference_titles": 0, "division_titles": 0, "playoff_appearances": 2, "reference": "1612709926", "team_colors": [{"type": "primary", "hex_color": "#e2231a", "rgb_color": {"red": 226, "green": 35, "blue": 26}}, {"type": "secondary", "hex_color": "#717271", "rgb_color": {"red": 113, "green": 114, "blue": 113}}], "venue": {"id": "0c04b68b-a69e-451e-84a8-e9e60a1f17c3", "name": "Landers Center", "capacity": 8362, "address": "4560 Venture Drive", "city": "Southaven", "state": "MS", "zip": "38671", "country": "USA", "location": {"lat": "34.927201", "lng": "-89.996536"}}}, {"id": "80411a5b-5ac0-4297-a19d-2dff8e0b611b", "name": "Clippers", "market": "San Diego", "alias": "SDC", "founded": 2017, "owner": "Los Angeles Clippers", "general_manager": "Todd Larios", "president": "Lawrence Frank", "mascot": "Kid Condor", "championships_won": 0, "conference_titles": 0, "division_titles": 0, "playoff_appearances": 1, "reference": "1612709924", "team_colors": [{"type": "secondary", "hex_color": "#c8102e", "rgb_color": {"red": 200, "green": 16, "blue": 46}}, {"type": "primary", "hex_color": "#12173f", "rgb_color": {"red": 18, "green": 23, "blue": 63}}], "venue": {"id": "a18f8953-7311-4c4d-8e11-a797a565b4e1", "name": "Frontwave Arena", "capacity": 7500, "address": "3475 Hero Drive", "city": "Oceanside", "state": "CA", "zip": "92056", "country": "USA", "location": {"lat": "33.12.28", "lng": "117.18.53"}}}, {"id": "9b8f2022-d45f-43f8-bf02-4914b04f5aa3", "name": "Vipers", "market": "Rio Grande Valley", "alias": "RGV", "founded": 2007, "owner": "Alonzo Cantu", "general_manager": "Travis Stockbridge", "president": "Rene Borrego", "mascot": "Fang", "sponsor": "Driscoll Health System", "championships_won": 4, "championship_seasons": "2010, 2013, 2019, 2022", "conference_titles": 7, "division_titles": 3, "playoff_appearances": 13, "reference": "1612709908", "team_colors": [{"type": "secondary", "hex_color": "#bec0c2", "rgb_color": {"red": 190, "green": 192, "blue": 194}}, {"type": "primary", "hex_color": "#ce1141", "rgb_color": {"red": 206, "green": 17, "blue": 65}}], "venue": {"id": "9b7b7dc4-1f20-427d-a8fb-3e3e9f16c051", "name": "Bert Ogden Arena", "capacity": 7688, "address": "4900 S I-69C", "city": "Edinburg", "state": "TX", "zip": "78541", "country": "USA", "location": {"lat": "26.255701744088825", "lng": "-98.16472381659733"}}}, {"id": "b0a52b1f-878d-4987-9249-026360e0207a", "name": "Warriors", "market": "Santa Cruz", "alias": "SCW", "founded": 2006, "owner": "Golden State Warriors", "general_manager": "Zach Harris", "president": "Chris Murphy", "mascot": "Mav'riks", "sponsor": "Rakuten", "championships_won": 4, "championship_seasons": "2002, 2004, 2007, 2015", "conference_titles": 4, "division_titles": 4, "playoff_appearances": 18, "reference": "1612709902", "team_colors": [{"type": "secondary", "hex_color": "#fdb927", "rgb_color": {"red": 253, "green": 185, "blue": 39}}, {"type": "primary", "hex_color": "#1d428a", "rgb_color": {"red": 29, "green": 66, "blue": 138}}], "venue": {"id": "8d4c5b0d-9028-4516-844d-251a8f16f49d", "name": "Kaiser Permanente Arena", "capacity": 2505, "address": "140 Front Street", "city": "Santa Cruz", "state": "CA", "zip": "95060", "country": "USA", "location": {"lat": "36.968611", "lng": "-122.023611"}}}, {"id": "b971b187-c542-4b76-9548-114acc564e05", "name": "Kings", "market": "Stockton", "alias": "STO", "founded": 2008, "owner": "Sacramento Kings", "general_manager": "Gabriel Harris", "mascot": "Dunkson", "sponsor": "Kaiser Permanente", "championships_won": 1, "championship_seasons": "2025", "conference_titles": 1, "division_titles": 3, "playoff_appearances": 9, "reference": "1612709914", "team_colors": [{"type": "secondary", "hex_color": "#000000", "rgb_color": {"red": 0, "green": 0, "blue": 0}}, {"type": "primary", "hex_color": "#5a2d81", "rgb_color": {"red": 90, "green": 45, "blue": 129}}], "venue": {"id": "2292d4a1-3e13-4d5b-80cb-25dc15e4c65c", "name": "Adventist Health Arena", "capacity": 11193, "address": "248 West Fremont Street", "city": "Stockton", "state": "CA", "zip": "95203", "country": "USA", "location": {"lat": "37.956217", "lng": "-121.296071"}}}, {"id": "cb42985c-2c08-4540-8b89-ea4d0b84958e", "name": "Legends", "market": "Texas", "alias": "TEX", "founded": 2006, "owner": "Dallas Mavericks", "general_manager": "Terry Sullivan", "president": "Spud Webb", "mascot": "Dunker", "sponsor": "DisposeRx", "championships_won": 1, "championship_seasons": "2009", "conference_titles": 1, "division_titles": 1, "playoff_appearances": 6, "reference": "1612709918", "team_colors": [{"type": "primary", "hex_color": "#0064b1", "rgb_color": {"red": 0, "green": 100, "blue": 177}}, {"type": "secondary", "hex_color": "#00285e", "rgb_color": {"red": 0, "green": 40, "blue": 94}}], "venue": {"id": "c516d326-c1e6-4c4f-be1a-d7dfae8b8927", "name": "Comerica Center", "capacity": 4500, "address": "2601 Avenue of the Stars", "city": "Frisco", "state": "TX", "zip": "75034", "country": "USA", "location": {"lat": "33.100742085243304", "lng": "-96.81912140292847"}}}, {"id": "d8552b4e-55cb-45fd-86d7-dc9ba2b472ac", "name": "Suns", "market": "Valley", "alias": "VAL", "founded": 2024, "owner": "Phoenix Suns", "general_manager": "Brendan Sabean", "president": "Josh Bartelstein", "mascot": "Ray", "sponsor": "Goodwill of Central and Northern Arizona", "championships_won": 0, "conference_titles": 0, "division_titles": 0, "playoff_appearances": 1, "reference": "1612709934", "team_colors": [{"type": "secondary", "hex_color": "#e56020", "rgb_color": {"red": 229, "green": 96, "blue": 32}}, {"type": "primary", "hex_color": "#1d1160", "rgb_color": {"red": 29, "green": 17, "blue": 96}}], "venue": {"id": "b57d06db-8ca4-436a-b8eb-cc25b5af6653", "name": "Mullett Arena", "capacity": 5000, "address": "411 S Packard Drive", "city": "Tempe", "state": "AZ", "zip": "85281", "country": "USA", "location": {"lat": "33.42672", "lng": "-111.92861"}}}, {"id": "e8112bd9-3694-4e38-a372-55e6398d488a", "name": "Skyforce", "market": "Sioux Falls", "alias": "SXF", "founded": 1989, "owner": "Miami Heat, Heineman family", "general_manager": "Jeremy DeCurtins", "president": "Mike Heineman", "mascot": "Thunder", "sponsor": "Robinhood", "championships_won": 3, "championship_seasons": "1996, 2005, 2016", "conference_titles": 5, "division_titles": 3, "playoff_appearances": 17, "reference": "1612709904", "team_colors": [{"type": "primary", "hex_color": "#000000", "rgb_color": {"red": 0, "green": 0, "blue": 0}}, {"type": "secondary", "hex_color": "#98002e", "rgb_color": {"red": 152, "green": 0, "blue": 46}}], "venue": {"id": "a477ebf3-eb2b-4846-a02b-a60c8ddc831c", "name": "Sanford Pentagon", "capacity": 3250, "address": "2210 W. Pentagon Place", "city": "Sioux Falls", "state": "SD", "zip": "57107", "country": "USA", "location": {"lat": "43.593056", "lng": "-96.758611"}}}, {"id": "f12b109d-a4fa-42f4-83fd-34a82cf65239", "name": "Stars", "market": "Salt Lake City", "alias": "SLC", "founded": 2006, "owner": "Utah Jazz", "general_manager": "Katie Benzan", "president": "Jonathan Rinehart", "mascot": "Buster Bear", "sponsor": "LiveView Technologies", "championships_won": 1, "championship_seasons": "2008", "conference_titles": 3, "division_titles": 2, "playoff_appearances": 11, "reference": "1612709903", "team_colors": [{"type": "primary", "hex_color": "#4e008e", "rgb_color": {"red": 78, "green": 0, "blue": 142}}, {"type": "secondary", "hex_color": "#79a3dc", "rgb_color": {"red": 121, "green": 163, "blue": 220}}], "venue": {"id": "d76e4500-2a31-4c69-9c61-5da367d3ebf4", "name": "Maverik Center", "capacity": 12500, "address": "3200 S Decker Lake Drive", "city": "West Valley City", "state": "UT", "zip": "84119", "country": "USA", "location": {"lat": "40.702888651161075", "lng": "-111.95038744501156"}}}]}, {"id": "68728826-fb6b-4e37-a60c-442cafea8151", "name": "Southwest", "alias": "SOUTHWEST-DL", "teams": []}, {"id": "a3eadbba-42e0-40ad-9964-46181a989148", "name": "Midwest", "alias": "MIDWEST-DL", "teams": []}]}, {"id": "aa94c231-e9c7-48ac-bcc4-99a0a9273f68", "name": "EASTERN CONFERENCE", "alias": "EASTERN-DL", "divisions": [{"id": "29016614-48f3-4b2b-95d7-6ee09cb3f0ca", "name": "Eastern Conference", "alias": "EASTERN - G", "teams": [{"id": "179339ce-525f-4a2d-8117-a4b33b3daebb", "name": "Magic", "market": "Osceola", "alias": "OSC", "founded": 2008, "owner": "Orlando Magic", "general_manager": "Kevin Tiller II", "president": "Hans Steinbrenner", "mascot": "Swish", "championships_won": 1, "championship_seasons": "2021", "conference_titles": 2, "division_titles": 2, "playoff_appearances": 8, "reference": "1612709925", "team_colors": [{"type": "primary", "hex_color": "#0077c0", "rgb_color": {"red": 0, "green": 119, "blue": 192}}, {"type": "secondary", "hex_color": "#000000", "rgb_color": {"red": 0, "green": 0, "blue": 0}}], "venue": {"id": "3f8b1b62-b5b2-4e3a-a084-2525d264e815", "name": "Silver Spurs Arena", "capacity": 8000, "address": "1875 Silver Spur Lane", "city": "Kissimmee", "state": "FL", "zip": "34744", "country": "USA", "location": {"lat": "28.298969", "lng": "-81.369035"}}}, {"id": "2d0a4879-33d3-4af9-a12f-8081362ff548", "name": "905", "market": "Raptors", "alias": "RAP", "founded": 2015, "owner": "Maple Leaf Sports & Entertainment", "general_manager": "Luke Winn", "president": "Courtney M. Charles", "mascot": "Stripes", "sponsor": "Tangerine", "championships_won": 1, "championship_seasons": "2017", "conference_titles": 2, "division_titles": 1, "playoff_appearances": 5, "reference": "1612709920", "team_colors": [{"type": "secondary", "hex_color": "#000000", "rgb_color": {"red": 0, "green": 0, "blue": 0}}, {"type": "primary", "hex_color": "#ce1141", "rgb_color": {"red": 206, "green": 17, "blue": 65}}], "venue": {"id": "1524bc01-a1fd-46df-8b9f-a062ae2ace94", "name": "Paramount Fine Foods Centre", "capacity": 5400, "address": "5500 Rose Cherry Place", "city": "Mississauga", "state": "ON", "zip": "L4Z 4B6", "country": "CAN", "location": {"lat": "43.632362", "lng": "-79.653460"}}}, {"id": "34f6b263-8f03-481a-9e59-0ce0bcd86480", "name": "Bulls", "market": "Windy City", "alias": "WCB", "founded": 2016, "owner": "Chicago Bulls", "general_manager": "Josh Malone", "president": "Brad Seymour", "mascot": "Gus T. Bull", "sponsor": "BMO", "championships_won": 0, "conference_titles": 0, "division_titles": 0, "playoff_appearances": 1, "reference": "1612709923", "team_colors": [{"type": "primary", "hex_color": "#ce1141", "rgb_color": {"red": 206, "green": 17, "blue": 65}}, {"type": "secondary", "hex_color": "#000000", "rgb_color": {"red": 0, "green": 0, "blue": 0}}], "venue": {"id": "9008f55d-5f8c-4974-810f-0834c147139b", "name": "NOW Arena", "capacity": 10000, "address": "5333 Prairie Stone Parkway", "city": "Hoffman Estates", "state": "IL", "zip": "60192", "country": "USA", "location": {"lat": "42.06928355285622", "lng": "-88.21206943353488"}}}, {"id": "452c9579-2fea-4534-8d18-5c701c8912db", "name": "Cruise", "market": "Motor City", "alias": "MCC", "founded": 2021, "owner": "Detroit Pistons", "general_manager": "Max Unger", "president": "China Jude", "mascot": "Nitro", "sponsor": "IBEW Local 58", "championships_won": 0, "conference_titles": 0, "division_titles": 1, "playoff_appearances": 6, "reference": "1612709932", "team_colors": [{"type": "secondary", "hex_color": "#c8102e", "rgb_color": {"red": 200, "green": 16, "blue": 46}}, {"type": "primary", "hex_color": "#1d428a", "rgb_color": {"red": 29, "green": 66, "blue": 138}}], "venue": {"id": "63d43653-70dd-4f57-bd62-0feac2059f82", "name": "Wayne State Arena", "capacity": 3000, "city": "Detroit", "state": "MI", "zip": "48202", "country": "USA", "location": {"lat": "42.353283", "lng": "-83.077079"}}}, {"id": "4dc54726-0738-413b-98b1-5b90dfe99aae", "name": "Knicks", "market": "Westchester", "alias": "WES", "founded": 2014, "owner": "New York Knicks", "general_manager": "Ryan Borges", "president": "Pops Mensah-Bonsu", "mascot": "Hudson Knickerbocker", "sponsor": "Chase", "championships_won": 0, "conference_titles": 0, "division_titles": 1, "playoff_appearances": 4, "reference": "1612709919", "team_colors": [{"type": "secondary", "hex_color": "#f58426", "rgb_color": {"red": 245, "green": 132, "blue": 38}}, {"type": "primary", "hex_color": "#006bb6", "rgb_color": {"red": 0, "green": 107, "blue": 182}}], "venue": {"id": "31572d68-01bc-43aa-92b3-19a0dfe33238", "name": "Westchester County Center", "capacity": 5000, "address": "198 Central Avenue", "city": "White Plains", "state": "NY", "zip": "10606", "country": "USA", "location": {"lat": "41.037166", "lng": "-73.778956"}}}, {"id": "5335bf84-d1ec-4c85-bc0e-1c36abc091e6", "name": "Boom", "market": "Noblesville", "alias": "NOB", "founded": 2007, "owner": "Pacers Sports and Entertainment", "general_manager": "Chris Taylor", "president": "Tim Bawmann", "championships_won": 1, "championship_seasons": "2014", "conference_titles": 2, "division_titles": 2, "retired_numbers": "17, 19", "playoff_appearances": 8, "reference": "1612709910", "team_colors": [{"type": "secondary", "hex_color": "#ffd520", "rgb_color": {"red": 255, "green": 213, "blue": 32}}, {"type": "primary", "hex_color": "#0c2340", "rgb_color": {"red": 12, "green": 35, "blue": 64}}], "venue": {"id": "1f499b56-7cbc-48cd-a312-7bb55734b4c8", "name": "The Arena at Innovation Mile", "capacity": 3400, "address": "14157 CJ Way", "city": "Noblesville", "state": "IN", "zip": "46060", "country": "USA", "location": {"lat": "39.99217", "lng": "-85.91165"}}}, {"id": "5902b793-b75b-4707-b065-3a76f0314715", "name": "Celtics", "market": "Maine", "alias": "MNE", "founded": 2009, "owner": "Boston Celtics", "general_manager": "Jarell Christian", "president": "Dajuan Eubanks", "mascot": "Crusher", "sponsor": "Vistaprint", "championships_won": 0, "conference_titles": 1, "division_titles": 3, "playoff_appearances": 7, "reference": "1612709915", "team_colors": [{"type": "primary", "hex_color": "#008348", "rgb_color": {"red": 0, "green": 131, "blue": 72}}, {"type": "secondary", "hex_color": "#ffffff", "rgb_color": {"red": 255, "green": 255, "blue": 255}}], "venue": {"id": "f70b605a-7d35-4127-b11e-d4390edb3a44", "name": "Portland Exposition Building", "capacity": 3000, "address": "239 Park Avenue", "city": "Portland", "state": "ME", "zip": "04102", "country": "USA", "location": {"lat": "43.6564", "lng": "-70.2773"}}}, {"id": "67a79348-041a-45f6-bb12-722d38dc8dbf", "name": "Blue Coats", "market": "Delaware", "alias": "DEL", "founded": 2007, "owner": "Harris Blitzer Sports & Entertainment", "general_manager": "Jameer Nelson", "president": "Larry Meli", "mascot": "Coaty", "sponsor": "crypto.com", "championships_won": 1, "championship_seasons": "2023", "conference_titles": 2, "division_titles": 1, "playoff_appearances": 7, "reference": "1612709909", "team_colors": [{"type": "primary", "hex_color": "#006bb6", "rgb_color": {"red": 0, "green": 107, "blue": 182}}, {"type": "secondary", "hex_color": "#ed174c", "rgb_color": {"red": 237, "green": 23, "blue": 76}}], "venue": {"id": "d08b7041-268e-43d7-aa14-daa2cdac4d39", "name": "Chase Fieldhouse", "capacity": 2500, "address": "401 Garasches Lane", "city": "Wilmington", "state": "DE", "zip": "19801", "country": "USA", "location": {"lat": "39.72766640406255", "lng": "-75.55521838998845"}}}, {"id": "68b3b75b-6d7f-437f-b450-bcd5d0727fa5", "name": "Skyhawks", "market": "College Park", "alias": "CPS", "founded": 2017, "owner": "Atlanta Hawks", "general_manager": "Aaron Evans", "president": "Dan Dial", "mascot": "Colli Hawk", "sponsor": "YMCA of Metro Atlanta", "championships_won": 0, "division_titles": 1, "playoff_appearances": 2, "reference": "1612709929", "team_colors": [{"type": "primary", "hex_color": "#c8102e", "rgb_color": {"red": 200, "green": 16, "blue": 46}}, {"type": "secondary", "hex_color": "#000000", "rgb_color": {"red": 0, "green": 0, "blue": 0}}], "venue": {"id": "bd2b9175-3436-4d8a-b3c1-2c8924f4590b", "name": "Gateway Center Arena", "capacity": 3500, "address": "2330 Convention Center Concourse", "city": "College Park", "state": "GA", "zip": "30337", "country": "USA", "location": {"lat": "33.646171", "lng": "-84.458691"}}}, {"id": "9ea5b326-cd0b-4bc2-bcec-dc174cb22ae9", "name": "Herd", "market": "Wisconsin", "alias": "WIS", "founded": 2017, "owner": "Milwaukee Bucks", "general_manager": "Arte Culver", "president": "Steve Brandes", "mascot": "Pointer", "sponsor": "BMO", "championships_won": 0, "conference_titles": 0, "division_titles": 0, "playoff_appearances": 0, "reference": "1612709927", "team_colors": [{"type": "secondary", "hex_color": "#eee1c6", "rgb_color": {"red": 238, "green": 225, "blue": 198}}, {"type": "primary", "hex_color": "#00471b", "rgb_color": {"red": 0, "green": 71, "blue": 27}}], "venue": {"id": "b0d2791b-e9e2-4870-be46-399938fae738", "name": "Oshkosh Arena", "capacity": 3500, "address": "1212 S Main Street", "city": "Oshkosh", "state": "WI", "zip": "54902", "country": "USA", "location": {"lat": "44.00719564038477", "lng": "-88.53743658880755"}}}, {"id": "a542fdd8-369d-4739-85c9-9ebf3be933aa", "name": "Nets", "market": "Long Island", "alias": "LIN", "founded": 2016, "owner": "Brooklyn Nets", "general_manager": "Matt MacDonald", "president": "Alton Byrd", "mascot": "Dale the Eagle", "sponsor": "National Grid", "championships_won": 0, "conference_titles": 1, "division_titles": 1, "retired_numbers": "32", "playoff_appearances": 4, "reference": "1612709921", "team_colors": [{"type": "primary", "hex_color": "#006bb6", "rgb_color": {"red": 0, "green": 107, "blue": 182}}, {"type": "secondary", "hex_color": "#ed174c", "rgb_color": {"red": 237, "green": 23, "blue": 76}}], "venue": {"id": "34e93560-1465-4f1e-bf07-982ac416442f", "name": "Nassau Veterans Memorial Coliseum", "capacity": 16500, "address": "1255 Hempstead Turnpike", "city": "Uniondale", "state": "NY", "zip": "11553", "country": "USA", "location": {"lat": "40.722956", "lng": "-73.590635"}}}, {"id": "a565062b-f8be-4a7f-b1f1-502057f3b365", "name": "Squadron", "market": "Birmingham", "alias": "BIR", "founded": 2019, "owner": "New Orleans Pelicans", "general_manager": "Adam Barnes", "mascot": "Commander", "sponsor": "Pearl River Resort", "championships_won": 0, "conference_titles": 0, "division_titles": 0, "playoff_appearances": 2, "reference": "1612709913", "team_colors": [{"type": "primary", "hex_color": "#ce0e2d", "rgb_color": {"red": 206, "green": 14, "blue": 45}}, {"type": "secondary", "hex_color": "#8c734b", "rgb_color": {"red": 140, "green": 115, "blue": 75}}], "venue": {"id": "8926c51e-153d-49db-95c4-ac3303336f0a", "name": "Legacy Arena at BJCC", "capacity": 17654, "address": "2100 Richard Arrington Jr Boulevard N", "city": "Birmingham", "state": "AL", "zip": "35203", "country": "USA", "location": {"lat": "33.52341784160253", "lng": "-86.81201659868414"}}}, {"id": "bbeebcb5-0d9b-4992-bcba-cbde3ec60628", "name": "Gold", "market": "Grand Rapids", "alias": "GRG", "founded": 2006, "owner": "SSJ Group", "general_manager": "Chad Iske", "president": "Steve Jbara", "mascot": "Buckets", "sponsor": "Atomic Honey", "championships_won": 0, "conference_titles": 0, "division_titles": 2, "playoff_appearances": 3, "reference": "1612709917", "team_colors": [{"type": "secondary", "hex_color": "#fec524", "rgb_color": {"red": 254, "green": 197, "blue": 36}}, {"type": "primary", "hex_color": "#0e2240", "rgb_color": {"red": 14, "green": 34, "blue": 64}}], "venue": {"id": "93a72a70-c86e-44b3-b900-312e49e7f94a", "name": "Van Andel Arena", "capacity": 10834, "address": "130 Fulton St W", "city": "Grand Rapids", "state": "MI", "zip": "49503", "country": "USA", "location": {"lat": "42.962532006496964", "lng": "-85.67150820074944"}}}, {"id": "cefdc308-b8ea-441e-a698-6ef3891cec35", "name": "Go-Go", "market": "Capital City", "alias": "CCG", "founded": 2018, "owner": "Monumental Sports & Entertainment", "general_manager": "Jonathan Wall", "president": "Michael Winger", "championships_won": 0, "conference_titles": 0, "division_titles": 0, "playoff_appearances": 4, "reference": "1612709928", "team_colors": [{"type": "primary", "hex_color": "#002b5c", "rgb_color": {"red": 0, "green": 43, "blue": 92}}, {"type": "secondary", "hex_color": "#e21837", "rgb_color": {"red": 226, "green": 24, "blue": 55}}], "venue": {"id": "84776b5f-b41b-4356-a5ed-3a2c28ab2597", "name": "CareFirst Arena", "capacity": 4200, "address": "1100 Oak Street SE", "city": "Washington", "state": "DC", "zip": "20032", "country": "USA", "location": {"lat": "38.846767", "lng": "-76.991422"}}}, {"id": "de15d563-8e6b-4f3d-ba47-9dfb6fc51222", "name": "Charge", "market": "Cleveland", "alias": "CLC", "founded": 2001, "owner": "Cleveland Cavaliers", "general_manager": "Liron Fanan", "president": "Koby Altman", "mascot": "Pozzie", "sponsor": "Rocket Mortgage", "championships_won": 1, "championship_seasons": "2006", "conference_titles": 2, "division_titles": 1, "playoff_appearances": 11, "reference": "1612709893", "team_colors": [{"type": "secondary", "hex_color": "#bc945c", "rgb_color": {"red": 188, "green": 148, "blue": 92}}, {"type": "primary", "hex_color": "#860038", "rgb_color": {"red": 134, "green": 0, "blue": 56}}], "venue": {"id": "04da755c-9169-4bef-8712-9c5ec013a853", "name": "Public Auditorium", "capacity": 10000, "address": "500 Lakeside Avenue", "city": "Cleveland", "state": "OH", "zip": "44114", "country": "USA", "location": {"lat": "41.50410", "lng": "-81.69344"}}}, {"id": "e74de5ce-3e98-4414-afe5-b56a90e527a2", "name": "Swarm", "market": "Greensboro", "alias": "GBO", "founded": 2016, "owner": "Charlotte Hornets", "general_manager": "Cole Teal", "president": "Steve Swetoha", "mascot": "Swarmy", "sponsor": "BMW", "championships_won": 0, "conference_titles": 0, "division_titles": 0, "playoff_appearances": 1, "reference": "1612709922", "team_colors": [{"type": "secondary", "hex_color": "#1d1160", "rgb_color": {"red": 29, "green": 17, "blue": 96}}, {"type": "primary", "hex_color": "#00788c", "rgb_color": {"red": 0, "green": 120, "blue": 140}}], "venue": {"id": "695d3bc9-f1db-4a96-9050-5a90073bbca0", "name": "First Horizon Coliseum", "capacity": 23500, "address": "1921 West Gate City Blvd", "city": "Greensboro", "state": "NC", "zip": "27403", "country": "USA", "location": {"lat": "36.059722", "lng": "-79.825556"}}}]}, {"id": "92fe9ffd-8603-4298-bbf3-709de9b8b308", "name": "Atlantic", "alias": "ATLANTIC-DL", "teams": []}, {"id": "a763cee5-570a-4ece-9327-3c13b34bf058", "name": "Central", "alias": "CENTRAL-DL", "teams": []}, {"id": "d1c41a6a-d331-41b1-b1e3-85032d2c0d51", "name": "Southeast", "alias": "SOUTHEAST-DL", "teams": []}]}, {"id": "c9e2144b-21cf-42aa-8fa2-00c5c43b70f3", "name": "G League", "alias": "G League", "divisions": [{"id": "09eec1a3-82f3-4833-866d-50a8163a7f1c", "name": "G League", "alias": "G League", "teams": []}]}]}